{
"type": "FeatureCollection",
"features": [
{ "type": "Feature", "properties": { "ID": 24164072, "Name": "Lime Tree False Flat", "StartLat": 53.362423, "StartLng": -2.438815, "Type": "R", "Link": "<a href=\"https:\/\/www.doogal.co.uk\/StravaSegment?id=24164072\">Lime Tree False Flat<\/a>", "latitude": 53.362423, "longitude": -2.438815 }, "geometry": { "type": "Point", "coordinates": [ -2.438815, 53.362423 ] } },
{ "type": "Feature", "properties": { "ID": 24009795, "Name": "To Primrose Hill off roa", "StartLat": 53.362899, "StartLng": -2.473352, "Type": "R", "Link": "<a href=\"https:\/\/www.doogal.co.uk\/StravaSegment?id=24009795\">To Primrose Hill off roa<\/a>", "latitude": 53.362899, "longitude": -2.473352 }, "geometry": { "type": "Point", "coordinates": [ -2.473352, 53.362899 ] } },
{ "type": "Feature", "properties": { "ID": 3967161, "Name": "Cut the Corner", "StartLat": 53.364783, "StartLng": -2.460888, "Type": "R", "Link": "<a href=\"https:\/\/www.doogal.co.uk\/StravaSegment?id=3967161\">Cut the Corner<\/a>", "latitude": 53.364783, "longitude": -2.460888 }, "geometry": { "type": "Point", "coordinates": [ -2.460888, 53.364783 ] } },
{ "type": "Feature", "properties": { "ID": 13745451, "Name": "Lap of Kay Ln", "StartLat": 53.364985, "StartLng": -2.460694, "Type": "R", "Link": "<a href=\"https:\/\/www.doogal.co.uk\/StravaSegment?id=13745451\">Lap of Kay Ln<\/a>", "latitude": 53.364985, "longitude": -2.460694 }, "geometry": { "type": "Point", "coordinates": [ -2.460694, 53.364985 ] } },
{ "type": "Feature", "properties": { "ID": 17814104, "Name": "Mag Ln (Towards A50)", "StartLat": 53.365903, "StartLng": -2.47014, "Type": "R", "Link": "<a href=\"https:\/\/www.doogal.co.uk\/StravaSegment?id=17814104\">Mag Ln (Towards A50)<\/a>", "latitude": 53.365903, "longitude": -2.47014 }, "geometry": { "type": "Point", "coordinates": [ -2.47014, 53.365903 ] } },
{ "type": "Feature", "properties": { "ID": 13916040, "Name": "High Legh Road", "StartLat": 53.366135, "StartLng": -2.446356, "Type": "R", "Link": "<a href=\"https:\/\/www.doogal.co.uk\/StravaSegment?id=13916040\">High Legh Road<\/a>", "latitude": 53.366135, "longitude": -2.446356 }, "geometry": { "type": "Point", "coordinates": [ -2.446356, 53.366135 ] } },
{ "type": "Feature", "properties": { "ID": 25099574, "Name": "Bongs Steps to steps", "StartLat": 53.367066, "StartLng": -2.488363, "Type": "R", "Link": "<a href=\"https:\/\/www.doogal.co.uk\/StravaSegment?id=25099574\">Bongs Steps to steps<\/a>", "latitude": 53.367066, "longitude": -2.488363 }, "geometry": { "type": "Point", "coordinates": [ -2.488363, 53.367066 ] } },
{ "type": "Feature", "properties": { "ID": 13745287, "Name": "Agden Lane", "StartLat": 53.36916, "StartLng": -2.4398, "Type": "R", "Link": "<a href=\"https:\/\/www.doogal.co.uk\/StravaSegment?id=13745287\">Agden Lane<\/a>", "latitude": 53.36916, "longitude": -2.4398 }, "geometry": { "type": "Point", "coordinates": [ -2.4398, 53.36916 ] } },
{ "type": "Feature", "properties": { "ID": 3001851, "Name": "Dam Broom", "StartLat": 53.36981, "StartLng": -2.44428, "Type": "R", "Link": "<a href=\"https:\/\/www.doogal.co.uk\/StravaSegment?id=3001851\">Dam Broom<\/a>", "latitude": 53.36981, "longitude": -2.44428 }, "geometry": { "type": "Point", "coordinates": [ -2.44428, 53.36981 ] } },
{ "type": "Feature", "properties": { "ID": 22665800, "Name": "Broomedge decline dash", "StartLat": 53.369923, "StartLng": -2.444605, "Type": "R", "Link": "<a href=\"https:\/\/www.doogal.co.uk\/StravaSegment?id=22665800\">Broomedge decline dash<\/a>", "latitude": 53.369923, "longitude": -2.444605 }, "geometry": { "type": "Point", "coordinates": [ -2.444605, 53.369923 ] } },
{ "type": "Feature", "properties": { "ID": 13916054, "Name": "Burford Lane down to Spudwood", "StartLat": 53.369958, "StartLng": -2.444081, "Type": "R", "Link": "<a href=\"https:\/\/www.doogal.co.uk\/StravaSegment?id=13916054\">Burford Lane down to Spudwood<\/a>", "latitude": 53.369958, "longitude": -2.444081 }, "geometry": { "type": "Point", "coordinates": [ -2.444081, 53.369958 ] } },
{ "type": "Feature", "properties": { "ID": 27009371, "Name": "The Ave Lakeside Dogleg", "StartLat": 53.37093, "StartLng": -2.491468, "Type": "R", "Link": "<a href=\"https:\/\/www.doogal.co.uk\/StravaSegment?id=27009371\">The Ave Lakeside Dogleg<\/a>", "latitude": 53.37093, "longitude": -2.491468 }, "geometry": { "type": "Point", "coordinates": [ -2.491468, 53.37093 ] } },
{ "type": "Feature", "properties": { "ID": 22640410, "Name": "Avenue to Booths", "StartLat": 53.371023, "StartLng": -2.491526, "Type": "R", "Link": "<a href=\"https:\/\/www.doogal.co.uk\/StravaSegment?id=22640410\">Avenue to Booths<\/a>", "latitude": 53.371023, "longitude": -2.491526 }, "geometry": { "type": "Point", "coordinates": [ -2.491526, 53.371023 ] } },
{ "type": "Feature", "properties": { "ID": 16396527, "Name": "Crouchley Ln Hill", "StartLat": 53.371286, "StartLng": -2.474178, "Type": "R", "Link": "<a href=\"https:\/\/www.doogal.co.uk\/StravaSegment?id=16396527\">Crouchley Ln Hill<\/a>", "latitude": 53.371286, "longitude": -2.474178 }, "geometry": { "type": "Point", "coordinates": [ -2.474178, 53.371286 ] } },
{ "type": "Feature", "properties": { "ID": 17333224, "Name": "Whiteleggs Lane - Footpath", "StartLat": 53.371998, "StartLng": -2.459043, "Type": "R", "Link": "<a href=\"https:\/\/www.doogal.co.uk\/StravaSegment?id=17333224\">Whiteleggs Lane - Footpath<\/a>", "latitude": 53.371998, "longitude": -2.459043 }, "geometry": { "type": "Point", "coordinates": [ -2.459043, 53.371998 ] } },
{ "type": "Feature", "properties": { "ID": 14671367, "Name": "Lakeside rd full- to a56", "StartLat": 53.372371, "StartLng": -2.485645, "Type": "R", "Link": "<a href=\"https:\/\/www.doogal.co.uk\/StravaSegment?id=14671367\">Lakeside rd full- to a56<\/a>", "latitude": 53.372371, "longitude": -2.485645 }, "geometry": { "type": "Point", "coordinates": [ -2.485645, 53.372371 ] } },
{ "type": "Feature", "properties": { "ID": 8646103, "Name": "Round the back", "StartLat": 53.37252, "StartLng": -2.459248, "Type": "R", "Link": "<a href=\"https:\/\/www.doogal.co.uk\/StravaSegment?id=8646103\">Round the back<\/a>", "latitude": 53.37252, "longitude": -2.459248 }, "geometry": { "type": "Point", "coordinates": [ -2.459248, 53.37252 ] } },
{ "type": "Feature", "properties": { "ID": 18784350, "Name": "Footpath 25  - Going North", "StartLat": 53.373027, "StartLng": -2.473955, "Type": "R", "Link": "<a href=\"https:\/\/www.doogal.co.uk\/StravaSegment?id=18784350\">Footpath 25  - Going North<\/a>", "latitude": 53.373027, "longitude": -2.473955 }, "geometry": { "type": "Point", "coordinates": [ -2.473955, 53.373027 ] } },
{ "type": "Feature", "properties": { "ID": 6804502, "Name": "Higher Lane", "StartLat": 53.373569, "StartLng": -2.461084, "Type": "R", "Link": "<a href=\"https:\/\/www.doogal.co.uk\/StravaSegment?id=6804502\">Higher Lane<\/a>", "latitude": 53.373569, "longitude": -2.461084 }, "geometry": { "type": "Point", "coordinates": [ -2.461084, 53.373569 ] } },
{ "type": "Feature", "properties": { "ID": 27091542, "Name": "Touch line lap (no cutting the corners!)", "StartLat": 53.37359, "StartLng": -2.476905, "Type": "R", "Link": "<a href=\"https:\/\/www.doogal.co.uk\/StravaSegment?id=27091542\">Touch line lap (no cutting the corners!)<\/a>", "latitude": 53.37359, "longitude": -2.476905 }, "geometry": { "type": "Point", "coordinates": [ -2.476905, 53.37359 ] } },
{ "type": "Feature", "properties": { "ID": 31899257, "Name": "Higher Lane", "StartLat": 53.373698, "StartLng": -2.461565, "Type": "R", "Link": "<a href=\"https:\/\/www.doogal.co.uk\/StravaSegment?id=31899257\">Higher Lane<\/a>", "latitude": 53.373698, "longitude": -2.461565 }, "geometry": { "type": "Point", "coordinates": [ -2.461565, 53.373698 ] } },
{ "type": "Feature", "properties": { "ID": 14671402, "Name": "Lakeside Rd to green", "StartLat": 53.375783, "StartLng": -2.484295, "Type": "R", "Link": "<a href=\"https:\/\/www.doogal.co.uk\/StravaSegment?id=14671402\">Lakeside Rd to green<\/a>", "latitude": 53.375783, "longitude": -2.484295 }, "geometry": { "type": "Point", "coordinates": [ -2.484295, 53.375783 ] } },
{ "type": "Feature", "properties": { "ID": 11406866, "Name": "Lymm Dam boardwalk sprint", "StartLat": 53.376017, "StartLng": -2.481513, "Type": "R", "Link": "<a href=\"https:\/\/www.doogal.co.uk\/StravaSegment?id=11406866\">Lymm Dam boardwalk sprint<\/a>", "latitude": 53.376017, "longitude": -2.481513 }, "geometry": { "type": "Point", "coordinates": [ -2.481513, 53.376017 ] } },
{ "type": "Feature", "properties": { "ID": 3662904, "Name": "Lymm 5k", "StartLat": 53.3760291, "StartLng": -2.494209, "Type": "R", "Link": "<a href=\"https:\/\/www.doogal.co.uk\/StravaSegment?id=3662904\">Lymm 5k<\/a>", "latitude": 53.3760291, "longitude": -2.494209 }, "geometry": { "type": "Point", "coordinates": [ -2.494209, 53.3760291 ] } },
{ "type": "Feature", "properties": { "ID": 24488569, "Name": "Stile to stile contact", "StartLat": 53.376189, "StartLng": -2.459963, "Type": "R", "Link": "<a href=\"https:\/\/www.doogal.co.uk\/StravaSegment?id=24488569\">Stile to stile contact<\/a>", "latitude": 53.376189, "longitude": -2.459963 }, "geometry": { "type": "Point", "coordinates": [ -2.459963, 53.376189 ] } },
{ "type": "Feature", "properties": { "ID": 24488737, "Name": "Oughty Ln to Burford Ln Trail", "StartLat": 53.376193, "StartLng": -2.460002, "Type": "R", "Link": "<a href=\"https:\/\/www.doogal.co.uk\/StravaSegment?id=24488737\">Oughty Ln to Burford Ln Trail<\/a>", "latitude": 53.376193, "longitude": -2.460002 }, "geometry": { "type": "Point", "coordinates": [ -2.460002, 53.376193 ] } },
{ "type": "Feature", "properties": { "ID": 17758164, "Name": "Footpath 40 - East to West", "StartLat": 53.37649, "StartLng": -2.476784, "Type": "R", "Link": "<a href=\"https:\/\/www.doogal.co.uk\/StravaSegment?id=17758164\">Footpath 40 - East to West<\/a>", "latitude": 53.37649, "longitude": -2.476784 }, "geometry": { "type": "Point", "coordinates": [ -2.476784, 53.37649 ] } },
{ "type": "Feature", "properties": { "ID": 15216450, "Name": "Round Lymm Dam", "StartLat": 53.37651, "StartLng": -2.477051, "Type": "R", "Link": "<a href=\"https:\/\/www.doogal.co.uk\/StravaSegment?id=15216450\">Round Lymm Dam<\/a>", "latitude": 53.37651, "longitude": -2.477051 }, "geometry": { "type": "Point", "coordinates": [ -2.477051, 53.37651 ] } },
{ "type": "Feature", "properties": { "ID": 18613314, "Name": "top lap of damn- stay on the top", "StartLat": 53.376551, "StartLng": -2.477503, "Type": "R", "Link": "<a href=\"https:\/\/www.doogal.co.uk\/StravaSegment?id=18613314\">top lap of damn- stay on the top<\/a>", "latitude": 53.376551, "longitude": -2.477503 }, "geometry": { "type": "Point", "coordinates": [ -2.477503, 53.376551 ] } },
{ "type": "Feature", "properties": { "ID": 3967157, "Name": "Crouchley Lane Dash", "StartLat": 53.376807, "StartLng": -2.476541, "Type": "R", "Link": "<a href=\"https:\/\/www.doogal.co.uk\/StravaSegment?id=3967157\">Crouchley Lane Dash<\/a>", "latitude": 53.376807, "longitude": -2.476541 }, "geometry": { "type": "Point", "coordinates": [ -2.476541, 53.376807 ] } },
{ "type": "Feature", "properties": { "ID": 3829198, "Name": "Lymm 10k Field Finish", "StartLat": 53.376815021000006, "StartLng": -2.4595399852800002, "Type": "R", "Link": "<a href=\"https:\/\/www.doogal.co.uk\/StravaSegment?id=3829198\">Lymm 10k Field Finish<\/a>", "latitude": 53.376815021000006, "longitude": -2.4595399852800002 }, "geometry": { "type": "Point", "coordinates": [ -2.45953998528, 53.376815021 ] } },
{ "type": "Feature", "properties": { "ID": 8032947, "Name": "Lymm Dam", "StartLat": 53.376934, "StartLng": -2.479863, "Type": "R", "Link": "<a href=\"https:\/\/www.doogal.co.uk\/StravaSegment?id=8032947\">Lymm Dam<\/a>", "latitude": 53.376934, "longitude": -2.479863 }, "geometry": { "type": "Point", "coordinates": [ -2.479863, 53.376934 ] } },
{ "type": "Feature", "properties": { "ID": 27537072, "Name": "Longbutt - Grammar School", "StartLat": 53.377056, "StartLng": -2.461338, "Type": "R", "Link": "<a href=\"https:\/\/www.doogal.co.uk\/StravaSegment?id=27537072\">Longbutt - Grammar School<\/a>", "latitude": 53.377056, "longitude": -2.461338 }, "geometry": { "type": "Point", "coordinates": [ -2.461338, 53.377056 ] } },
{ "type": "Feature", "properties": { "ID": 20483923, "Name": "Tims torment", "StartLat": 53.377902, "StartLng": -2.44543, "Type": "R", "Link": "<a href=\"https:\/\/www.doogal.co.uk\/StravaSegment?id=20483923\">Tims torment<\/a>", "latitude": 53.377902, "longitude": -2.44543 }, "geometry": { "type": "Point", "coordinates": [ -2.44543, 53.377902 ] } },
{ "type": "Feature", "properties": { "ID": 20849813, "Name": "Empty the tank", "StartLat": 53.378211, "StartLng": -2.466423, "Type": "R", "Link": "<a href=\"https:\/\/www.doogal.co.uk\/StravaSegment?id=20849813\">Empty the tank<\/a>", "latitude": 53.378211, "longitude": -2.466423 }, "geometry": { "type": "Point", "coordinates": [ -2.466423, 53.378211 ] } },
{ "type": "Feature", "properties": { "ID": 17793784, "Name": "Church View", "StartLat": 53.378267, "StartLng": -2.466548, "Type": "R", "Link": "<a href=\"https:\/\/www.doogal.co.uk\/StravaSegment?id=17793784\">Church View<\/a>", "latitude": 53.378267, "longitude": -2.466548 }, "geometry": { "type": "Point", "coordinates": [ -2.466548, 53.378267 ] } },
{ "type": "Feature", "properties": { "ID": 16396531, "Name": "Late For School!", "StartLat": 53.378274, "StartLng": -2.466627, "Type": "R", "Link": "<a href=\"https:\/\/www.doogal.co.uk\/StravaSegment?id=16396531\">Late For School!<\/a>", "latitude": 53.378274, "longitude": -2.466627 }, "geometry": { "type": "Point", "coordinates": [ -2.466627, 53.378274 ] } },
{ "type": "Feature", "properties": { "ID": 8997564, "Name": "Lymm, Dam Mile", "StartLat": 53.378405, "StartLng": -2.481022, "Type": "R", "Link": "<a href=\"https:\/\/www.doogal.co.uk\/StravaSegment?id=8997564\">Lymm, Dam Mile<\/a>", "latitude": 53.378405, "longitude": -2.481022 }, "geometry": { "type": "Point", "coordinates": [ -2.481022, 53.378405 ] } },
{ "type": "Feature", "properties": { "ID": 15746259, "Name": "Lymm Runners 1 mile TT", "StartLat": 53.378723, "StartLng": -2.458208, "Type": "R", "Link": "<a href=\"https:\/\/www.doogal.co.uk\/StravaSegment?id=15746259\">Lymm Runners 1 mile TT<\/a>", "latitude": 53.378723, "longitude": -2.458208 }, "geometry": { "type": "Point", "coordinates": [ -2.458208, 53.378723 ] } },
{ "type": "Feature", "properties": { "ID": 15703776, "Name": "Lymm grass track 400", "StartLat": 53.378725, "StartLng": -2.458185, "Type": "R", "Link": "<a href=\"https:\/\/www.doogal.co.uk\/StravaSegment?id=15703776\">Lymm grass track 400<\/a>", "latitude": 53.378725, "longitude": -2.458185 }, "geometry": { "type": "Point", "coordinates": [ -2.458185, 53.378725 ] } },
{ "type": "Feature", "properties": { "ID": 19040569, "Name": "Lakeside to Crouchley ", "StartLat": 53.378874, "StartLng": -2.483058, "Type": "R", "Link": "<a href=\"https:\/\/www.doogal.co.uk\/StravaSegment?id=19040569\">Lakeside to Crouchley <\/a>", "latitude": 53.378874, "longitude": -2.483058 }, "geometry": { "type": "Point", "coordinates": [ -2.483058, 53.378874 ] } },
{ "type": "Feature", "properties": { "ID": 16547930, "Name": "Down Orchard", "StartLat": 53.37894, "StartLng": -2.470812, "Type": "R", "Link": "<a href=\"https:\/\/www.doogal.co.uk\/StravaSegment?id=16547930\">Down Orchard<\/a>", "latitude": 53.37894, "longitude": -2.470812 }, "geometry": { "type": "Point", "coordinates": [ -2.470812, 53.37894 ] } },
{ "type": "Feature", "properties": { "ID": 23315800, "Name": "MasseyBrook 2 Wazza", "StartLat": 53.379518, "StartLng": -2.496648, "Type": "R", "Link": "<a href=\"https:\/\/www.doogal.co.uk\/StravaSegment?id=23315800\">MasseyBrook 2 Wazza<\/a>", "latitude": 53.379518, "longitude": -2.496648 }, "geometry": { "type": "Point", "coordinates": [ -2.496648, 53.379518 ] } },
{ "type": "Feature", "properties": { "ID": 21688390, "Name": "Dawns destiny", "StartLat": 53.379537, "StartLng": -2.460829, "Type": "R", "Link": "<a href=\"https:\/\/www.doogal.co.uk\/StravaSegment?id=21688390\">Dawns destiny<\/a>", "latitude": 53.379537, "longitude": -2.460829 }, "geometry": { "type": "Point", "coordinates": [ -2.460829, 53.379537 ] } },
{ "type": "Feature", "properties": { "ID": 28320149, "Name": "Highfield to M6 Overpass", "StartLat": 53.37956, "StartLng": -2.495211, "Type": "R", "Link": "<a href=\"https:\/\/www.doogal.co.uk\/StravaSegment?id=28320149\">Highfield to M6 Overpass<\/a>", "latitude": 53.37956, "longitude": -2.495211 }, "geometry": { "type": "Point", "coordinates": [ -2.495211, 53.37956 ] } },
{ "type": "Feature", "properties": { "ID": 19304106, "Name": "The Crown to TPT ", "StartLat": 53.379625, "StartLng": -2.487729, "Type": "R", "Link": "<a href=\"https:\/\/www.doogal.co.uk\/StravaSegment?id=19304106\">The Crown to TPT <\/a>", "latitude": 53.379625, "longitude": -2.487729 }, "geometry": { "type": "Point", "coordinates": [ -2.487729, 53.379625 ] } },
{ "type": "Feature", "properties": { "ID": 8306061, "Name": "Falling Star", "StartLat": 53.37963, "StartLng": -2.49163, "Type": "R", "Link": "<a href=\"https:\/\/www.doogal.co.uk\/StravaSegment?id=8306061\">Falling Star<\/a>", "latitude": 53.37963, "longitude": -2.49163 }, "geometry": { "type": "Point", "coordinates": [ -2.49163, 53.37963 ] } },
{ "type": "Feature", "properties": { "ID": 21540852, "Name": "Field Climb", "StartLat": 53.379667, "StartLng": -2.461123, "Type": "R", "Link": "<a href=\"https:\/\/www.doogal.co.uk\/StravaSegment?id=21540852\">Field Climb<\/a>", "latitude": 53.379667, "longitude": -2.461123 }, "geometry": { "type": "Point", "coordinates": [ -2.461123, 53.379667 ] } },
{ "type": "Feature", "properties": { "ID": 27493750, "Name": "Run to the woods", "StartLat": 53.380495, "StartLng": -2.459906, "Type": "R", "Link": "<a href=\"https:\/\/www.doogal.co.uk\/StravaSegment?id=27493750\">Run to the woods<\/a>", "latitude": 53.380495, "longitude": -2.459906 }, "geometry": { "type": "Point", "coordinates": [ -2.459906, 53.380495 ] } },
{ "type": "Feature", "properties": { "ID": 3015629, "Name": "Wally Wade", "StartLat": 53.380734, "StartLng": -2.445083, "Type": "R", "Link": "<a href=\"https:\/\/www.doogal.co.uk\/StravaSegment?id=3015629\">Wally Wade<\/a>", "latitude": 53.380734, "longitude": -2.445083 }, "geometry": { "type": "Point", "coordinates": [ -2.445083, 53.380734 ] } },
{ "type": "Feature", "properties": { "ID": 2625146, "Name": "Canal Rocks to Pipe", "StartLat": 53.38087, "StartLng": -2.44077, "Type": "R", "Link": "<a href=\"https:\/\/www.doogal.co.uk\/StravaSegment?id=2625146\">Canal Rocks to Pipe<\/a>", "latitude": 53.38087, "longitude": -2.44077 }, "geometry": { "type": "Point", "coordinates": [ -2.44077, 53.38087 ] } },
{ "type": "Feature", "properties": { "ID": 16203953, "Name": "Orchard Climb", "StartLat": 53.380879, "StartLng": -2.471482, "Type": "R", "Link": "<a href=\"https:\/\/www.doogal.co.uk\/StravaSegment?id=16203953\">Orchard Climb<\/a>", "latitude": 53.380879, "longitude": -2.471482 }, "geometry": { "type": "Point", "coordinates": [ -2.471482, 53.380879 ] } },
{ "type": "Feature", "properties": { "ID": 3833066, "Name": "Rectory Lane climb", "StartLat": 53.3809202, "StartLng": -2.4774607, "Type": "R", "Link": "<a href=\"https:\/\/www.doogal.co.uk\/StravaSegment?id=3833066\">Rectory Lane climb<\/a>", "latitude": 53.3809202, "longitude": -2.4774607 }, "geometry": { "type": "Point", "coordinates": [ -2.4774607, 53.3809202 ] } },
{ "type": "Feature", "properties": { "ID": 23325844, "Name": "Barsbank Climb", "StartLat": 53.381493, "StartLng": -2.492853, "Type": "R", "Link": "<a href=\"https:\/\/www.doogal.co.uk\/StravaSegment?id=23325844\">Barsbank Climb<\/a>", "latitude": 53.381493, "longitude": -2.492853 }, "geometry": { "type": "Point", "coordinates": [ -2.492853, 53.381493 ] } },
{ "type": "Feature", "properties": { "ID": 21502072, "Name": "Jumping Jack Flash HT sprint", "StartLat": 53.381751, "StartLng": -2.458552, "Type": "R", "Link": "<a href=\"https:\/\/www.doogal.co.uk\/StravaSegment?id=21502072\">Jumping Jack Flash HT sprint<\/a>", "latitude": 53.381751, "longitude": -2.458552 }, "geometry": { "type": "Point", "coordinates": [ -2.458552, 53.381751 ] } },
{ "type": "Feature", "properties": { "ID": 18840450, "Name": "Barn Owl Effort", "StartLat": 53.382052, "StartLng": -2.446118, "Type": "R", "Link": "<a href=\"https:\/\/www.doogal.co.uk\/StravaSegment?id=18840450\">Barn Owl Effort<\/a>", "latitude": 53.382052, "longitude": -2.446118 }, "geometry": { "type": "Point", "coordinates": [ -2.446118, 53.382052 ] } },
{ "type": "Feature", "properties": { "ID": 10590623, "Name": "Lymm canalside", "StartLat": 53.382071, "StartLng": -2.476427, "Type": "R", "Link": "<a href=\"https:\/\/www.doogal.co.uk\/StravaSegment?id=10590623\">Lymm canalside<\/a>", "latitude": 53.382071, "longitude": -2.476427 }, "geometry": { "type": "Point", "coordinates": [ -2.476427, 53.382071 ] } },
{ "type": "Feature", "properties": { "ID": 7997356, "Name": "Star to Warrington Rd", "StartLat": 53.382124, "StartLng": -2.492915, "Type": "R", "Link": "<a href=\"https:\/\/www.doogal.co.uk\/StravaSegment?id=7997356\">Star to Warrington Rd<\/a>", "latitude": 53.382124, "longitude": -2.492915 }, "geometry": { "type": "Point", "coordinates": [ -2.492915, 53.382124 ] } },
{ "type": "Feature", "properties": { "ID": 26452198, "Name": "Maltmans Road & Grundy Park", "StartLat": 53.382255, "StartLng": -2.482927, "Type": "R", "Link": "<a href=\"https:\/\/www.doogal.co.uk\/StravaSegment?id=26452198\">Maltmans Road & Grundy Park<\/a>", "latitude": 53.382255, "longitude": -2.482927 }, "geometry": { "type": "Point", "coordinates": [ -2.482927, 53.382255 ] } },
{ "type": "Feature", "properties": { "ID": 24848263, "Name": "Down New Road", "StartLat": 53.382361, "StartLng": -2.476874, "Type": "R", "Link": "<a href=\"https:\/\/www.doogal.co.uk\/StravaSegment?id=24848263\">Down New Road<\/a>", "latitude": 53.382361, "longitude": -2.476874 }, "geometry": { "type": "Point", "coordinates": [ -2.476874, 53.382361 ] } },
{ "type": "Feature", "properties": { "ID": 8997597, "Name": "Lymm, Star Ln - A56 (2297 feet)", "StartLat": 53.38246, "StartLng": -2.49316, "Type": "R", "Link": "<a href=\"https:\/\/www.doogal.co.uk\/StravaSegment?id=8997597\">Lymm, Star Ln - A56 (2297 feet)<\/a>", "latitude": 53.38246, "longitude": -2.49316 }, "geometry": { "type": "Point", "coordinates": [ -2.49316, 53.38246 ] } },
{ "type": "Feature", "properties": { "ID": 18840385, "Name": "Oak Villa Loop ACW", "StartLat": 53.382577, "StartLng": -2.44609, "Type": "R", "Link": "<a href=\"https:\/\/www.doogal.co.uk\/StravaSegment?id=18840385\">Oak Villa Loop ACW<\/a>", "latitude": 53.382577, "longitude": -2.44609 }, "geometry": { "type": "Point", "coordinates": [ -2.44609, 53.382577 ] } },
{ "type": "Feature", "properties": { "ID": 15862032, "Name": "Stage Ln", "StartLat": 53.382728, "StartLng": -2.446311, "Type": "R", "Link": "<a href=\"https:\/\/www.doogal.co.uk\/StravaSegment?id=15862032\">Stage Ln<\/a>", "latitude": 53.382728, "longitude": -2.446311 }, "geometry": { "type": "Point", "coordinates": [ -2.446311, 53.382728 ] } },
{ "type": "Feature", "properties": { "ID": 3829139, "Name": "Lymm Hill Climb", "StartLat": 53.382742451499993, "StartLng": -2.4572817329299999, "Type": "R", "Link": "<a href=\"https:\/\/www.doogal.co.uk\/StravaSegment?id=3829139\">Lymm Hill Climb<\/a>", "latitude": 53.382742451499993, "longitude": -2.4572817329299999 }, "geometry": { "type": "Point", "coordinates": [ -2.45728173293, 53.382742451499993 ] } },
{ "type": "Feature", "properties": { "ID": 27667604, "Name": "Canal Bank - Spud Wood to Bridge", "StartLat": 53.382868, "StartLng": -2.450206, "Type": "R", "Link": "<a href=\"https:\/\/www.doogal.co.uk\/StravaSegment?id=27667604\">Canal Bank - Spud Wood to Bridge<\/a>", "latitude": 53.382868, "longitude": -2.450206 }, "geometry": { "type": "Point", "coordinates": [ -2.450206, 53.382868 ] } },
{ "type": "Feature", "properties": { "ID": 18438010, "Name": "Stage Lane to TP ", "StartLat": 53.382878, "StartLng": -2.446031, "Type": "R", "Link": "<a href=\"https:\/\/www.doogal.co.uk\/StravaSegment?id=18438010\">Stage Lane to TP <\/a>", "latitude": 53.382878, "longitude": -2.446031 }, "geometry": { "type": "Point", "coordinates": [ -2.446031, 53.382878 ] } },
{ "type": "Feature", "properties": { "ID": 21131211, "Name": "The village climb", "StartLat": 53.383343, "StartLng": -2.476197, "Type": "R", "Link": "<a href=\"https:\/\/www.doogal.co.uk\/StravaSegment?id=21131211\">The village climb<\/a>", "latitude": 53.383343, "longitude": -2.476197 }, "geometry": { "type": "Point", "coordinates": [ -2.476197, 53.383343 ] } },
{ "type": "Feature", "properties": { "ID": 24848246, "Name": "Up New Road", "StartLat": 53.383601, "StartLng": -2.475957, "Type": "R", "Link": "<a href=\"https:\/\/www.doogal.co.uk\/StravaSegment?id=24848246\">Up New Road<\/a>", "latitude": 53.383601, "longitude": -2.475957 }, "geometry": { "type": "Point", "coordinates": [ -2.475957, 53.383601 ] } },
{ "type": "Feature", "properties": { "ID": 8032963, "Name": "The Quarry", "StartLat": 53.383636, "StartLng": -2.479487, "Type": "R", "Link": "<a href=\"https:\/\/www.doogal.co.uk\/StravaSegment?id=8032963\">The Quarry<\/a>", "latitude": 53.383636, "longitude": -2.479487 }, "geometry": { "type": "Point", "coordinates": [ -2.479487, 53.383636 ] } },
{ "type": "Feature", "properties": { "ID": 20400019, "Name": "Dont wake the sleeping policemen", "StartLat": 53.383684, "StartLng": -2.477697, "Type": "R", "Link": "<a href=\"https:\/\/www.doogal.co.uk\/StravaSegment?id=20400019\">Dont wake the sleeping policemen<\/a>", "latitude": 53.383684, "longitude": -2.477697 }, "geometry": { "type": "Point", "coordinates": [ -2.477697, 53.383684 ] } },
{ "type": "Feature", "properties": { "ID": 22392031, "Name": "Dane Bank Hill Sprint", "StartLat": 53.383742, "StartLng": -2.479639, "Type": "R", "Link": "<a href=\"https:\/\/www.doogal.co.uk\/StravaSegment?id=22392031\">Dane Bank Hill Sprint<\/a>", "latitude": 53.383742, "longitude": -2.479639 }, "geometry": { "type": "Point", "coordinates": [ -2.479639, 53.383742 ] } },
{ "type": "Feature", "properties": { "ID": 20022970, "Name": "Footpath 34 - East to West", "StartLat": 53.383832, "StartLng": -2.456666, "Type": "R", "Link": "<a href=\"https:\/\/www.doogal.co.uk\/StravaSegment?id=20022970\">Footpath 34 - East to West<\/a>", "latitude": 53.383832, "longitude": -2.456666 }, "geometry": { "type": "Point", "coordinates": [ -2.456666, 53.383832 ] } },
{ "type": "Feature", "properties": { "ID": 18713422, "Name": "Grasmere to Bucklow ", "StartLat": 53.38408, "StartLng": -2.473277, "Type": "R", "Link": "<a href=\"https:\/\/www.doogal.co.uk\/StravaSegment?id=18713422\">Grasmere to Bucklow <\/a>", "latitude": 53.38408, "longitude": -2.473277 }, "geometry": { "type": "Point", "coordinates": [ -2.473277, 53.38408 ] } },
{ "type": "Feature", "properties": { "ID": 23176314, "Name": "Statham Streak", "StartLat": 53.384169, "StartLng": -2.483774, "Type": "R", "Link": "<a href=\"https:\/\/www.doogal.co.uk\/StravaSegment?id=23176314\">Statham Streak<\/a>", "latitude": 53.384169, "longitude": -2.483774 }, "geometry": { "type": "Point", "coordinates": [ -2.483774, 53.384169 ] } },
{ "type": "Feature", "properties": { "ID": 18437976, "Name": "Stage Lane reverse ", "StartLat": 53.384219, "StartLng": -2.454866, "Type": "R", "Link": "<a href=\"https:\/\/www.doogal.co.uk\/StravaSegment?id=18437976\">Stage Lane reverse <\/a>", "latitude": 53.384219, "longitude": -2.454866 }, "geometry": { "type": "Point", "coordinates": [ -2.454866, 53.384219 ] } },
{ "type": "Feature", "properties": { "ID": 4689156, "Name": "Spud Climb", "StartLat": 53.384365, "StartLng": -2.455031, "Type": "R", "Link": "<a href=\"https:\/\/www.doogal.co.uk\/StravaSegment?id=4689156\">Spud Climb<\/a>", "latitude": 53.384365, "longitude": -2.455031 }, "geometry": { "type": "Point", "coordinates": [ -2.455031, 53.384365 ] } },
{ "type": "Feature", "properties": { "ID": 13586879, "Name": "Team Wolfpack Hunting Ground", "StartLat": 53.385608, "StartLng": -2.477603, "Type": "R", "Link": "<a href=\"https:\/\/www.doogal.co.uk\/StravaSegment?id=13586879\">Team Wolfpack Hunting Ground<\/a>", "latitude": 53.385608, "longitude": -2.477603 }, "geometry": { "type": "Point", "coordinates": [ -2.477603, 53.385608 ] } },
{ "type": "Feature", "properties": { "ID": 21189485, "Name": "Reddish; Ln 2 Cres", "StartLat": 53.38601, "StartLng": -2.47348, "Type": "R", "Link": "<a href=\"https:\/\/www.doogal.co.uk\/StravaSegment?id=21189485\">Reddish; Ln 2 Cres<\/a>", "latitude": 53.38601, "longitude": -2.47348 }, "geometry": { "type": "Point", "coordinates": [ -2.47348, 53.38601 ] } },
{ "type": "Feature", "properties": { "ID": 8976302, "Name": "Dashing Howard", "StartLat": 53.386761, "StartLng": -2.464189, "Type": "R", "Link": "<a href=\"https:\/\/www.doogal.co.uk\/StravaSegment?id=8976302\">Dashing Howard<\/a>", "latitude": 53.386761, "longitude": -2.464189 }, "geometry": { "type": "Point", "coordinates": [ -2.464189, 53.386761 ] } },
{ "type": "Feature", "properties": { "ID": 9429735, "Name": "OLD VERSION - Lymm Warburton 5k loop", "StartLat": 53.387134, "StartLng": -2.463213, "Type": "R", "Link": "<a href=\"https:\/\/www.doogal.co.uk\/StravaSegment?id=9429735\">OLD VERSION - Lymm Warburton 5k loop<\/a>", "latitude": 53.387134, "longitude": -2.463213 }, "geometry": { "type": "Point", "coordinates": [ -2.463213, 53.387134 ] } },
{ "type": "Feature", "properties": { "ID": 9429724, "Name": "Lymm Warburton 5k loop", "StartLat": 53.387164, "StartLng": -2.463031, "Type": "R", "Link": "<a href=\"https:\/\/www.doogal.co.uk\/StravaSegment?id=9429724\">Lymm Warburton 5k loop<\/a>", "latitude": 53.387164, "longitude": -2.463031 }, "geometry": { "type": "Point", "coordinates": [ -2.463031, 53.387164 ] } },
{ "type": "Feature", "properties": { "ID": 19006431, "Name": "Bucklow to Sandy Lane ", "StartLat": 53.387289, "StartLng": -2.462305, "Type": "R", "Link": "<a href=\"https:\/\/www.doogal.co.uk\/StravaSegment?id=19006431\">Bucklow to Sandy Lane <\/a>", "latitude": 53.387289, "longitude": -2.462305 }, "geometry": { "type": "Point", "coordinates": [ -2.462305, 53.387289 ] } },
{ "type": "Feature", "properties": { "ID": 23454703, "Name": "Bollin Dog Leg - East to West", "StartLat": 53.387339, "StartLng": -2.464672, "Type": "R", "Link": "<a href=\"https:\/\/www.doogal.co.uk\/StravaSegment?id=23454703\">Bollin Dog Leg - East to West<\/a>", "latitude": 53.387339, "longitude": -2.464672 }, "geometry": { "type": "Point", "coordinates": [ -2.464672, 53.387339 ] } },
{ "type": "Feature", "properties": { "ID": 16570375, "Name": "Rushgreen: Bucklow to Danebank", "StartLat": 53.387373, "StartLng": -2.462515, "Type": "R", "Link": "<a href=\"https:\/\/www.doogal.co.uk\/StravaSegment?id=16570375\">Rushgreen: Bucklow to Danebank<\/a>", "latitude": 53.387373, "longitude": -2.462515 }, "geometry": { "type": "Point", "coordinates": [ -2.462515, 53.387373 ] } },
{ "type": "Feature", "properties": { "ID": 21686979, "Name": "Sandy Mill Field Sprint", "StartLat": 53.387487, "StartLng": -2.446919, "Type": "R", "Link": "<a href=\"https:\/\/www.doogal.co.uk\/StravaSegment?id=21686979\">Sandy Mill Field Sprint<\/a>", "latitude": 53.387487, "longitude": -2.446919 }, "geometry": { "type": "Point", "coordinates": [ -2.446919, 53.387487 ] } },
{ "type": "Feature", "properties": { "ID": 15217729, "Name": "TPT: Reddish Ln to Birch Brook Rd", "StartLat": 53.387518, "StartLng": -2.46817, "Type": "R", "Link": "<a href=\"https:\/\/www.doogal.co.uk\/StravaSegment?id=15217729\">TPT: Reddish Ln to Birch Brook Rd<\/a>", "latitude": 53.387518, "longitude": -2.46817 }, "geometry": { "type": "Point", "coordinates": [ -2.46817, 53.387518 ] } },
{ "type": "Feature", "properties": { "ID": 15323615, "Name": "Wet Gate Ln\/ Spring Ln Loop", "StartLat": 53.387944, "StartLng": -2.446401, "Type": "R", "Link": "<a href=\"https:\/\/www.doogal.co.uk\/StravaSegment?id=15323615\">Wet Gate Ln\/ Spring Ln Loop<\/a>", "latitude": 53.387944, "longitude": -2.446401 }, "geometry": { "type": "Point", "coordinates": [ -2.446401, 53.387944 ] } },
{ "type": "Feature", "properties": { "ID": 23750693, "Name": "Sandy Ln South", "StartLat": 53.388729, "StartLng": -2.45777, "Type": "R", "Link": "<a href=\"https:\/\/www.doogal.co.uk\/StravaSegment?id=23750693\">Sandy Ln South<\/a>", "latitude": 53.388729, "longitude": -2.45777 }, "geometry": { "type": "Point", "coordinates": [ -2.45777, 53.388729 ] } },
{ "type": "Feature", "properties": { "ID": 23264969, "Name": "Springbank Sprint", "StartLat": 53.389246, "StartLng": -2.455879, "Type": "R", "Link": "<a href=\"https:\/\/www.doogal.co.uk\/StravaSegment?id=23264969\">Springbank Sprint<\/a>", "latitude": 53.389246, "longitude": -2.455879 }, "geometry": { "type": "Point", "coordinates": [ -2.455879, 53.389246 ] } },
{ "type": "Feature", "properties": { "ID": 1435820, "Name": "Viaduct to The Star", "StartLat": 53.3811195, "StartLng": -2.5054851, "Type": "R", "Link": "<a href=\"https:\/\/www.doogal.co.uk\/StravaSegment?id=1435820\">Viaduct to The Star<\/a>", "latitude": 53.3811195, "longitude": -2.5054851 }, "geometry": { "type": "Point", "coordinates": [ -2.5054851, 53.3811195 ] } },
{ "type": "Feature", "properties": { "ID": 7997332, "Name": "Warrington Rd to Star", "StartLat": 53.383198, "StartLng": -2.509071, "Type": "R", "Link": "<a href=\"https:\/\/www.doogal.co.uk\/StravaSegment?id=7997332\">Warrington Rd to Star<\/a>", "latitude": 53.383198, "longitude": -2.509071 }, "geometry": { "type": "Point", "coordinates": [ -2.509071, 53.383198 ] } },
{ "type": "Feature", "properties": { "ID": 11359708, "Name": "Stockport Road Hill", "StartLat": 53.383266, "StartLng": -2.513235, "Type": "R", "Link": "<a href=\"https:\/\/www.doogal.co.uk\/StravaSegment?id=11359708\">Stockport Road Hill<\/a>", "latitude": 53.383266, "longitude": -2.513235 }, "geometry": { "type": "Point", "coordinates": [ -2.513235, 53.383266 ] } },
{ "type": "Feature", "properties": { "ID": 14369617, "Name": "Warrington Road to Cherry Ln", "StartLat": 53.382007, "StartLng": -2.510494, "Type": "R", "Link": "<a href=\"https:\/\/www.doogal.co.uk\/StravaSegment?id=14369617\">Warrington Road to Cherry Ln<\/a>", "latitude": 53.382007, "longitude": -2.510494 }, "geometry": { "type": "Point", "coordinates": [ -2.510494, 53.382007 ] } },
{ "type": "Feature", "properties": { "ID": 16748831, "Name": "Transpennine. Stockport Rd to Canal at Halfacre Lane", "StartLat": 53.381038, "StartLng": -2.506147, "Type": "R", "Link": "<a href=\"https:\/\/www.doogal.co.uk\/StravaSegment?id=16748831\">Transpennine. Stockport Rd to Canal at Halfacre Lane<\/a>", "latitude": 53.381038, "longitude": -2.506147 }, "geometry": { "type": "Point", "coordinates": [ -2.506147, 53.381038 ] } },
{ "type": "Feature", "properties": { "ID": 19086240, "Name": "Underpass to Barsbank", "StartLat": 53.38082, "StartLng": -2.503307, "Type": "R", "Link": "<a href=\"https:\/\/www.doogal.co.uk\/StravaSegment?id=19086240\">Underpass to Barsbank<\/a>", "latitude": 53.38082, "longitude": -2.503307 }, "geometry": { "type": "Point", "coordinates": [ -2.503307, 53.38082 ] } },
{ "type": "Feature", "properties": { "ID": 2625083, "Name": "TP to Canal Traverse", "StartLat": 53.390053333333327, "StartLng": -2.4478216666666666, "Type": "R", "Link": "<a href=\"https:\/\/www.doogal.co.uk\/StravaSegment?id=2625083\">TP to Canal Traverse<\/a>", "latitude": 53.390053333333327, "longitude": -2.4478216666666666 }, "geometry": { "type": "Point", "coordinates": [ -2.447821666666667, 53.390053333333327 ] } },
{ "type": "Feature", "properties": { "ID": 11585624, "Name": "TPT: Bike Shop to Reddish Lane ", "StartLat": 53.389612, "StartLng": -2.455088, "Type": "R", "Link": "<a href=\"https:\/\/www.doogal.co.uk\/StravaSegment?id=11585624\">TPT: Bike Shop to Reddish Lane <\/a>", "latitude": 53.389612, "longitude": -2.455088 }, "geometry": { "type": "Point", "coordinates": [ -2.455088, 53.389612 ] } },
{ "type": "Feature", "properties": { "ID": 14792288, "Name": "TPT - Mill Lane to Seamon's ", "StartLat": 53.390129, "StartLng": -2.447847, "Type": "R", "Link": "<a href=\"https:\/\/www.doogal.co.uk\/StravaSegment?id=14792288\">TPT - Mill Lane to Seamon's <\/a>", "latitude": 53.390129, "longitude": -2.447847 }, "geometry": { "type": "Point", "coordinates": [ -2.447847, 53.390129 ] } },
{ "type": "Feature", "properties": { "ID": 15235610, "Name": "TPT: Railway Pub to the Co-op", "StartLat": 53.390194, "StartLng": -2.448091, "Type": "R", "Link": "<a href=\"https:\/\/www.doogal.co.uk\/StravaSegment?id=15235610\">TPT: Railway Pub to the Co-op<\/a>", "latitude": 53.390194, "longitude": -2.448091 }, "geometry": { "type": "Point", "coordinates": [ -2.448091, 53.390194 ] } },
{ "type": "Feature", "properties": { "ID": 18667600, "Name": "TP to Stage Lane ", "StartLat": 53.390121, "StartLng": -2.4479, "Type": "R", "Link": "<a href=\"https:\/\/www.doogal.co.uk\/StravaSegment?id=18667600\">TP to Stage Lane <\/a>", "latitude": 53.390121, "longitude": -2.4479 }, "geometry": { "type": "Point", "coordinates": [ -2.4479, 53.390121 ] } },
{ "type": "Feature", "properties": { "ID": 19064001, "Name": "Green Dragon to Sainsburys ", "StartLat": 53.392212, "StartLng": -2.44931, "Type": "R", "Link": "<a href=\"https:\/\/www.doogal.co.uk\/StravaSegment?id=19064001\">Green Dragon to Sainsburys <\/a>", "latitude": 53.392212, "longitude": -2.44931 }, "geometry": { "type": "Point", "coordinates": [ -2.44931, 53.392212 ] } },
{ "type": "Feature", "properties": { "ID": 21776389, "Name": "Reddish Lane beat the train", "StartLat": 53.390652, "StartLng": -2.455115, "Type": "R", "Link": "<a href=\"https:\/\/www.doogal.co.uk\/StravaSegment?id=21776389\">Reddish Lane beat the train<\/a>", "latitude": 53.390652, "longitude": -2.455115 }, "geometry": { "type": "Point", "coordinates": [ -2.455115, 53.390652 ] } },
{ "type": "Feature", "properties": { "ID": 11073621, "Name": "HP Gas Marker to Bent Lane", "StartLat": 53.398062, "StartLng": -2.453136, "Type": "R", "Link": "<a href=\"https:\/\/www.doogal.co.uk\/StravaSegment?id=11073621\">HP Gas Marker to Bent Lane<\/a>", "latitude": 53.398062, "longitude": -2.453136 }, "geometry": { "type": "Point", "coordinates": [ -2.453136, 53.398062 ] } },
{ "type": "Feature", "properties": { "ID": 21676563, "Name": "Dawns Dash", "StartLat": 53.390917, "StartLng": -2.438612, "Type": "R", "Link": "<a href=\"https:\/\/www.doogal.co.uk\/StravaSegment?id=21676563\">Dawns Dash<\/a>", "latitude": 53.390917, "longitude": -2.438612 }, "geometry": { "type": "Point", "coordinates": [ -2.438612, 53.390917 ] } },
{ "type": "Feature", "properties": { "ID": 21686911, "Name": "Bollin Splash", "StartLat": 53.387919, "StartLng": -2.438294, "Type": "R", "Link": "<a href=\"https:\/\/www.doogal.co.uk\/StravaSegment?id=21686911\">Bollin Splash<\/a>", "latitude": 53.387919, "longitude": -2.438294 }, "geometry": { "type": "Point", "coordinates": [ -2.438294, 53.387919 ] } },
{ "type": "Feature", "properties": { "ID": 3598825, "Name": "Bell to the Brook", "StartLat": 53.379776, "StartLng": -2.521293, "Type": "R", "Link": "<a href=\"https:\/\/www.doogal.co.uk\/StravaSegment?id=3598825\">Bell to the Brook<\/a>", "latitude": 53.379776, "longitude": -2.521293 }, "geometry": { "type": "Point", "coordinates": [ -2.521293, 53.379776 ] } },
{ "type": "Feature", "properties": { "ID": 5285224, "Name": "The pub to the shops", "StartLat": 53.383526, "StartLng": -2.524919, "Type": "R", "Link": "<a href=\"https:\/\/www.doogal.co.uk\/StravaSegment?id=5285224\">The pub to the shops<\/a>", "latitude": 53.383526, "longitude": -2.524919 }, "geometry": { "type": "Point", "coordinates": [ -2.524919, 53.383526 ] } },
{ "type": "Feature", "properties": { "ID": 8499985, "Name": "Halfacre lane to the A56", "StartLat": 53.375453, "StartLng": -2.516455, "Type": "R", "Link": "<a href=\"https:\/\/www.doogal.co.uk\/StravaSegment?id=8499985\">Halfacre lane to the A56<\/a>", "latitude": 53.375453, "longitude": -2.516455 }, "geometry": { "type": "Point", "coordinates": [ -2.516455, 53.375453 ] } },
{ "type": "Feature", "properties": { "ID": 16103590, "Name": "1 mile effort - Thelwall New Rd", "StartLat": 53.380183, "StartLng": -2.521103, "Type": "R", "Link": "<a href=\"https:\/\/www.doogal.co.uk\/StravaSegment?id=16103590\">1 mile effort - Thelwall New Rd<\/a>", "latitude": 53.380183, "longitude": -2.521103 }, "geometry": { "type": "Point", "coordinates": [ -2.521103, 53.380183 ] } },
{ "type": "Feature", "properties": { "ID": 16595986, "Name": "Cinder Lane", "StartLat": 53.375194, "StartLng": -2.516638, "Type": "R", "Link": "<a href=\"https:\/\/www.doogal.co.uk\/StravaSegment?id=16595986\">Cinder Lane<\/a>", "latitude": 53.375194, "longitude": -2.516638 }, "geometry": { "type": "Point", "coordinates": [ -2.516638, 53.375194 ] } },
{ "type": "Feature", "properties": { "ID": 16807191, "Name": "Halfacre to Cliff", "StartLat": 53.375336, "StartLng": -2.517301, "Type": "R", "Link": "<a href=\"https:\/\/www.doogal.co.uk\/StravaSegment?id=16807191\">Halfacre to Cliff<\/a>", "latitude": 53.375336, "longitude": -2.517301 }, "geometry": { "type": "Point", "coordinates": [ -2.517301, 53.375336 ] } },
{ "type": "Feature", "properties": { "ID": 18323692, "Name": "Not half a Bellacre climb", "StartLat": 53.38347, "StartLng": -2.524499, "Type": "R", "Link": "<a href=\"https:\/\/www.doogal.co.uk\/StravaSegment?id=18323692\">Not half a Bellacre climb<\/a>", "latitude": 53.38347, "longitude": -2.524499 }, "geometry": { "type": "Point", "coordinates": [ -2.524499, 53.38347 ] } },
{ "type": "Feature", "properties": { "ID": 20128917, "Name": "chaigely hill rep", "StartLat": 53.378513, "StartLng": -2.520107, "Type": "R", "Link": "<a href=\"https:\/\/www.doogal.co.uk\/StravaSegment?id=20128917\">chaigely hill rep<\/a>", "latitude": 53.378513, "longitude": -2.520107 }, "geometry": { "type": "Point", "coordinates": [ -2.520107, 53.378513 ] } },
{ "type": "Feature", "properties": { "ID": 23531024, "Name": "Up the hill", "StartLat": 53.387688, "StartLng": -2.521668, "Type": "R", "Link": "<a href=\"https:\/\/www.doogal.co.uk\/StravaSegment?id=23531024\">Up the hill<\/a>", "latitude": 53.387688, "longitude": -2.521668 }, "geometry": { "type": "Point", "coordinates": [ -2.521668, 53.387688 ] } },
{ "type": "Feature", "properties": { "ID": 23531069, "Name": "Along the ridge", "StartLat": 53.388891, "StartLng": -2.522009, "Type": "R", "Link": "<a href=\"https:\/\/www.doogal.co.uk\/StravaSegment?id=23531069\">Along the ridge<\/a>", "latitude": 53.388891, "longitude": -2.522009 }, "geometry": { "type": "Point", "coordinates": [ -2.522009, 53.388891 ] } },
{ "type": "Feature", "properties": { "ID": 25207220, "Name": "Cinder Lane-Australia Lane Horseshoe", "StartLat": 53.375331, "StartLng": -2.516695, "Type": "R", "Link": "<a href=\"https:\/\/www.doogal.co.uk\/StravaSegment?id=25207220\">Cinder Lane-Australia Lane Horseshoe<\/a>", "latitude": 53.375331, "longitude": -2.516695 }, "geometry": { "type": "Point", "coordinates": [ -2.516695, 53.375331 ] } }
]
}
