{
"type": "FeatureCollection",
"features": [
{ "type": "Feature", "properties": { "ID": 22024586, "Name": "Race the cars downhill sprint", "StartLat": 53.363305, "StartLng": -2.449687, "Type": "R", "Link": "<a href=\"https:\/\/www.strava.com\/segments\/22024586\">Race the cars downhill sprint<\/a>", "latitude": 53.363305, "longitude": -2.449687 }, "geometry": { "type": "Point", "coordinates": [ -2.449687, 53.363305 ] } },
{ "type": "Feature", "properties": { "ID": 13745442, "Name": "Crouchley ln, Rugby club", "StartLat": 53.364781, "StartLng": -2.460848, "Type": "R", "Link": "<a href=\"https:\/\/www.strava.com\/segments\/13745442\">Crouchley ln, Rugby club<\/a>", "latitude": 53.364781, "longitude": -2.460848 }, "geometry": { "type": "Point", "coordinates": [ -2.460848, 53.364781 ] } },
{ "type": "Feature", "properties": { "ID": 18784357, "Name": "Footpath 28 - Froghall Ln to High Legh Rd", "StartLat": 53.366685, "StartLng": -2.439851, "Type": "R", "Link": "<a href=\"https:\/\/www.strava.com\/segments\/18784357\">Footpath 28 - Froghall Ln to High Legh Rd<\/a>", "latitude": 53.366685, "longitude": -2.439851 }, "geometry": { "type": "Point", "coordinates": [ -2.439851, 53.366685 ] } },
{ "type": "Feature", "properties": { "ID": 23871374, "Name": "Uphill Leggs ", "StartLat": 53.36833, "StartLng": -2.458846, "Type": "R", "Link": "<a href=\"https:\/\/www.strava.com\/segments\/23871374\">Uphill Leggs <\/a>", "latitude": 53.36833, "longitude": -2.458846 }, "geometry": { "type": "Point", "coordinates": [ -2.458846, 53.36833 ] } },
{ "type": "Feature", "properties": { "ID": 27473594, "Name": "Post to Post (N)", "StartLat": 53.368362, "StartLng": -2.458989, "Type": "R", "Link": "<a href=\"https:\/\/www.strava.com\/segments\/27473594\">Post to Post (N)<\/a>", "latitude": 53.368362, "longitude": -2.458989 }, "geometry": { "type": "Point", "coordinates": [ -2.458989, 53.368362 ] } },
{ "type": "Feature", "properties": { "ID": 16756951, "Name": "Oughtrington Ln (Descent)", "StartLat": 53.373802, "StartLng": -2.461486, "Type": "R", "Link": "<a href=\"https:\/\/www.strava.com\/segments\/16756951\">Oughtrington Ln (Descent)<\/a>", "latitude": 53.373802, "longitude": -2.461486 }, "geometry": { "type": "Point", "coordinates": [ -2.461486, 53.373802 ] } },
{ "type": "Feature", "properties": { "ID": 27350869, "Name": "Manor Rd down", "StartLat": 53.374646, "StartLng": -2.476025, "Type": "R", "Link": "<a href=\"https:\/\/www.strava.com\/segments\/27350869\">Manor Rd down<\/a>", "latitude": 53.374646, "longitude": -2.476025 }, "geometry": { "type": "Point", "coordinates": [ -2.476025, 53.374646 ] } },
{ "type": "Feature", "properties": { "ID": 14671361, "Name": "Lakeside Rd- alley to a56", "StartLat": 53.375902, "StartLng": -2.484169, "Type": "R", "Link": "<a href=\"https:\/\/www.strava.com\/segments\/14671361\">Lakeside Rd- alley to a56<\/a>", "latitude": 53.375902, "longitude": -2.484169 }, "geometry": { "type": "Point", "coordinates": [ -2.484169, 53.375902 ] } },
{ "type": "Feature", "properties": { "ID": 3967157, "Name": "Crouchley Lane Dash", "StartLat": 53.376807, "StartLng": -2.476541, "Type": "R", "Link": "<a href=\"https:\/\/www.strava.com\/segments\/3967157\">Crouchley Lane Dash<\/a>", "latitude": 53.376807, "longitude": -2.476541 }, "geometry": { "type": "Point", "coordinates": [ -2.476541, 53.376807 ] } },
{ "type": "Feature", "properties": { "ID": 3829180, "Name": "Lymm 10k Downhill", "StartLat": 53.378342371400002, "StartLng": -2.4667906668000001, "Type": "R", "Link": "<a href=\"https:\/\/www.strava.com\/segments\/3829180\">Lymm 10k Downhill<\/a>", "latitude": 53.378342371400002, "longitude": -2.4667906668000001 }, "geometry": { "type": "Point", "coordinates": [ -2.4667906668, 53.378342371400002 ] } },
{ "type": "Feature", "properties": { "ID": 16547930, "Name": "Down Orchard", "StartLat": 53.37894, "StartLng": -2.470812, "Type": "R", "Link": "<a href=\"https:\/\/www.strava.com\/segments\/16547930\">Down Orchard<\/a>", "latitude": 53.37894, "longitude": -2.470812 }, "geometry": { "type": "Point", "coordinates": [ -2.470812, 53.37894 ] } },
{ "type": "Feature", "properties": { "ID": 23325844, "Name": "Barsbank Climb", "StartLat": 53.381493, "StartLng": -2.492853, "Type": "R", "Link": "<a href=\"https:\/\/www.strava.com\/segments\/23325844\">Barsbank Climb<\/a>", "latitude": 53.381493, "longitude": -2.492853 }, "geometry": { "type": "Point", "coordinates": [ -2.492853, 53.381493 ] } },
{ "type": "Feature", "properties": { "ID": 23577665, "Name": "Gate to Grange hill climb", "StartLat": 53.381812, "StartLng": -2.458898, "Type": "R", "Link": "<a href=\"https:\/\/www.strava.com\/segments\/23577665\">Gate to Grange hill climb<\/a>", "latitude": 53.381812, "longitude": -2.458898 }, "geometry": { "type": "Point", "coordinates": [ -2.458898, 53.381812 ] } },
{ "type": "Feature", "properties": { "ID": 26452198, "Name": "Maltmans Road & Grundy Park", "StartLat": 53.382255, "StartLng": -2.482927, "Type": "R", "Link": "<a href=\"https:\/\/www.strava.com\/segments\/26452198\">Maltmans Road & Grundy Park<\/a>", "latitude": 53.382255, "longitude": -2.482927 }, "geometry": { "type": "Point", "coordinates": [ -2.482927, 53.382255 ] } },
{ "type": "Feature", "properties": { "ID": 22599246, "Name": "Star Hill Sprint", "StartLat": 53.382463, "StartLng": -2.493119, "Type": "R", "Link": "<a href=\"https:\/\/www.strava.com\/segments\/22599246\">Star Hill Sprint<\/a>", "latitude": 53.382463, "longitude": -2.493119 }, "geometry": { "type": "Point", "coordinates": [ -2.493119, 53.382463 ] } },
{ "type": "Feature", "properties": { "ID": 8032963, "Name": "The Quarry", "StartLat": 53.383636, "StartLng": -2.479487, "Type": "R", "Link": "<a href=\"https:\/\/www.strava.com\/segments\/8032963\">The Quarry<\/a>", "latitude": 53.383636, "longitude": -2.479487 }, "geometry": { "type": "Point", "coordinates": [ -2.479487, 53.383636 ] } },
{ "type": "Feature", "properties": { "ID": 20400019, "Name": "Dont wake the sleeping policemen", "StartLat": 53.383684, "StartLng": -2.477697, "Type": "R", "Link": "<a href=\"https:\/\/www.strava.com\/segments\/20400019\">Dont wake the sleeping policemen<\/a>", "latitude": 53.383684, "longitude": -2.477697 }, "geometry": { "type": "Point", "coordinates": [ -2.477697, 53.383684 ] } },
{ "type": "Feature", "properties": { "ID": 16984792, "Name": "Sandy Lane Stretch", "StartLat": 53.384275, "StartLng": -2.45504, "Type": "R", "Link": "<a href=\"https:\/\/www.strava.com\/segments\/16984792\">Sandy Lane Stretch<\/a>", "latitude": 53.384275, "longitude": -2.45504 }, "geometry": { "type": "Point", "coordinates": [ -2.45504, 53.384275 ] } },
{ "type": "Feature", "properties": { "ID": 11087304, "Name": "Captain's Slog.", "StartLat": 53.384299, "StartLng": -2.483497, "Type": "R", "Link": "<a href=\"https:\/\/www.strava.com\/segments\/11087304\">Captain's Slog.<\/a>", "latitude": 53.384299, "longitude": -2.483497 }, "geometry": { "type": "Point", "coordinates": [ -2.483497, 53.384299 ] } },
{ "type": "Feature", "properties": { "ID": 15216024, "Name": "Through Bucklow", "StartLat": 53.384935, "StartLng": -2.460302, "Type": "R", "Link": "<a href=\"https:\/\/www.strava.com\/segments\/15216024\">Through Bucklow<\/a>", "latitude": 53.384935, "longitude": -2.460302 }, "geometry": { "type": "Point", "coordinates": [ -2.460302, 53.384935 ] } },
{ "type": "Feature", "properties": { "ID": 19023337, "Name": "Lymmhay to Reddish ", "StartLat": 53.385564, "StartLng": -2.477837, "Type": "R", "Link": "<a href=\"https:\/\/www.strava.com\/segments\/19023337\">Lymmhay to Reddish <\/a>", "latitude": 53.385564, "longitude": -2.477837 }, "geometry": { "type": "Point", "coordinates": [ -2.477837, 53.385564 ] } },
{ "type": "Feature", "properties": { "ID": 21189485, "Name": "Reddish; Ln 2 Cres", "StartLat": 53.38601, "StartLng": -2.47348, "Type": "R", "Link": "<a href=\"https:\/\/www.strava.com\/segments\/21189485\">Reddish; Ln 2 Cres<\/a>", "latitude": 53.38601, "longitude": -2.47348 }, "geometry": { "type": "Point", "coordinates": [ -2.47348, 53.38601 ] } },
{ "type": "Feature", "properties": { "ID": 8377962, "Name": "Bollin Dog Leg - come and have a go if you think you're fast enough", "StartLat": 53.387094, "StartLng": -2.468308, "Type": "R", "Link": "<a href=\"https:\/\/www.strava.com\/segments\/8377962\">Bollin Dog Leg - come and have a go if you think you're fast enough<\/a>", "latitude": 53.387094, "longitude": -2.468308 }, "geometry": { "type": "Point", "coordinates": [ -2.468308, 53.387094 ] } },
{ "type": "Feature", "properties": { "ID": 23454703, "Name": "Bollin Dog Leg - East to West", "StartLat": 53.387339, "StartLng": -2.464672, "Type": "R", "Link": "<a href=\"https:\/\/www.strava.com\/segments\/23454703\">Bollin Dog Leg - East to West<\/a>", "latitude": 53.387339, "longitude": -2.464672 }, "geometry": { "type": "Point", "coordinates": [ -2.464672, 53.387339 ] } },
{ "type": "Feature", "properties": { "ID": 8997586, "Name": "Lymm, Reddish Ln - Lymmhay Ln (23,622 inches)", "StartLat": 53.38739, "StartLng": -2.46897, "Type": "R", "Link": "<a href=\"https:\/\/www.strava.com\/segments\/8997586\">Lymm, Reddish Ln - Lymmhay Ln (23,622 inches)<\/a>", "latitude": 53.38739, "longitude": -2.46897 }, "geometry": { "type": "Point", "coordinates": [ -2.46897, 53.38739 ] } },
{ "type": "Feature", "properties": { "ID": 16748659, "Name": "Canal. M6 to Barsbank Lane", "StartLat": 53.37826, "StartLng": -2.506508, "Type": "R", "Link": "<a href=\"https:\/\/www.strava.com\/segments\/16748659\">Canal. M6 to Barsbank Lane<\/a>", "latitude": 53.37826, "longitude": -2.506508 }, "geometry": { "type": "Point", "coordinates": [ -2.506508, 53.37826 ] } },
{ "type": "Feature", "properties": { "ID": 15219205, "Name": "TPT: Co-op to the Railway Pub", "StartLat": 53.38983, "StartLng": -2.453488, "Type": "R", "Link": "<a href=\"https:\/\/www.strava.com\/segments\/15219205\">TPT: Co-op to the Railway Pub<\/a>", "latitude": 53.38983, "longitude": -2.453488 }, "geometry": { "type": "Point", "coordinates": [ -2.453488, 53.38983 ] } },
{ "type": "Feature", "properties": { "ID": 21776389, "Name": "Reddish Lane beat the train", "StartLat": 53.390652, "StartLng": -2.455115, "Type": "R", "Link": "<a href=\"https:\/\/www.strava.com\/segments\/21776389\">Reddish Lane beat the train<\/a>", "latitude": 53.390652, "longitude": -2.455115 }, "geometry": { "type": "Point", "coordinates": [ -2.455115, 53.390652 ] } },
{ "type": "Feature", "properties": { "ID": 17027922, "Name": "Bent Lane - Warburton Bridge Loop", "StartLat": 53.395232, "StartLng": -2.44895, "Type": "R", "Link": "<a href=\"https:\/\/www.strava.com\/segments\/17027922\">Bent Lane - Warburton Bridge Loop<\/a>", "latitude": 53.395232, "longitude": -2.44895 }, "geometry": { "type": "Point", "coordinates": [ -2.44895, 53.395232 ] } }
]
}
