{"type":"FeatureCollection","features":[{"type":"Feature","properties":{"":4,"ID":22024586,"Name":"Race the cars downhill sprint","Type":"R","latitude":53.363305000000004,"longitude":-2.449687},"geometry":{"type":"Point","coordinates":[-2.449687,53.363305000000004]}},{"type":"Feature","properties":{"":14,"ID":13745442,"Name":"Crouchley ln, Rugby club","Type":"R","latitude":53.36478100000001,"longitude":-2.460848},"geometry":{"type":"Point","coordinates":[-2.460848,53.36478100000001]}},{"type":"Feature","properties":{"":23,"ID":18784357,"Name":"Footpath 28 - Froghall Ln to High Legh Rd","Type":"R","latitude":53.366685,"longitude":-2.439851},"geometry":{"type":"Point","coordinates":[-2.439851,53.366685]}},{"type":"Feature","properties":{"":29,"ID":23871374,"Name":"Uphill Leggs ","Type":"R","latitude":53.36833000000001,"longitude":-2.458846},"geometry":{"type":"Point","coordinates":[-2.458846,53.36833000000001]}},{"type":"Feature","properties":{"":30,"ID":27473594,"Name":"Post to Post (N)","Type":"R","latitude":53.368362,"longitude":-2.458989},"geometry":{"type":"Point","coordinates":[-2.458989,53.368362]}},{"type":"Feature","properties":{"":66,"ID":16756951,"Name":"Oughtrington Ln (Descent)","Type":"R","latitude":53.373802000000005,"longitude":-2.461486},"geometry":{"type":"Point","coordinates":[-2.461486,53.373802000000005]}},{"type":"Feature","properties":{"":74,"ID":27383428,"Name":"Booths Ln - Cherry Ln to Massey Brook Ln","Type":"R","latitude":53.374862,"longitude":-2.490113},"geometry":{"type":"Point","coordinates":[-2.490113,53.374862]}},{"type":"Feature","properties":{"":155,"ID":14691501,"Name":"Burford Climb","Type":"R","latitude":53.381330000000005,"longitude":-2.44502},"geometry":{"type":"Point","coordinates":[-2.44502,53.381330000000005]}},{"type":"Feature","properties":{"":218,"ID":15216024,"Name":"Through Bucklow","Type":"R","latitude":53.384935,"longitude":-2.460302},"geometry":{"type":"Point","coordinates":[-2.460302,53.384935]}},{"type":"Feature","properties":{"":223,"ID":19023337,"Name":"Lymmhay to Reddish ","Type":"R","latitude":53.385564,"longitude":-2.477837},"geometry":{"type":"Point","coordinates":[-2.477837,53.385564]}},{"type":"Feature","properties":{"":235,"ID":8377962,"Name":"Bollin Dog Leg - come and have a go if you think you're fast enough","Type":"R","latitude":53.387094,"longitude":-2.4683080000000004},"geometry":{"type":"Point","coordinates":[-2.4683080000000004,53.387094]}},{"type":"Feature","properties":{"":241,"ID":8608983,"Name":"Farmer's Elbow","Type":"R","latitude":53.387368,"longitude":-2.468282},"geometry":{"type":"Point","coordinates":[-2.468282,53.387368]}}]}