{
"type": "FeatureCollection",
"features": [
{ "type": "Feature", "properties": { "ID": 22024586, "Name": "Race the cars downhill sprint", "StartLat": 53.363305, "StartLng": -2.449687, "Type": "R", "latitude": 53.363305, "longitude": -2.449687 }, "geometry": { "type": "Point", "coordinates": [ -2.449687, 53.363305 ] } },
{ "type": "Feature", "properties": { "ID": 13745442, "Name": "Crouchley ln, Rugby club", "StartLat": 53.364781, "StartLng": -2.460848, "Type": "R", "latitude": 53.364781, "longitude": -2.460848 }, "geometry": { "type": "Point", "coordinates": [ -2.460848, 53.364781 ] } },
{ "type": "Feature", "properties": { "ID": 18784357, "Name": "Footpath 28 - Froghall Ln to High Legh Rd", "StartLat": 53.366685, "StartLng": -2.439851, "Type": "R", "latitude": 53.366685, "longitude": -2.439851 }, "geometry": { "type": "Point", "coordinates": [ -2.439851, 53.366685 ] } },
{ "type": "Feature", "properties": { "ID": 23871374, "Name": "Uphill Leggs ", "StartLat": 53.36833, "StartLng": -2.458846, "Type": "R", "latitude": 53.36833, "longitude": -2.458846 }, "geometry": { "type": "Point", "coordinates": [ -2.458846, 53.36833 ] } },
{ "type": "Feature", "properties": { "ID": 27473594, "Name": "Post to Post (N)", "StartLat": 53.368362, "StartLng": -2.458989, "Type": "R", "latitude": 53.368362, "longitude": -2.458989 }, "geometry": { "type": "Point", "coordinates": [ -2.458989, 53.368362 ] } },
{ "type": "Feature", "properties": { "ID": 23176270, "Name": "Footpath 40 - West to East", "StartLat": 53.371994, "StartLng": -2.48434, "Type": "R", "latitude": 53.371994, "longitude": -2.48434 }, "geometry": { "type": "Point", "coordinates": [ -2.48434, 53.371994 ] } },
{ "type": "Feature", "properties": { "ID": 16756951, "Name": "Oughtrington Ln (Descent)", "StartLat": 53.373802, "StartLng": -2.461486, "Type": "R", "latitude": 53.373802, "longitude": -2.461486 }, "geometry": { "type": "Point", "coordinates": [ -2.461486, 53.373802 ] } },
{ "type": "Feature", "properties": { "ID": 27350869, "Name": "Manor Rd down", "StartLat": 53.374646, "StartLng": -2.476025, "Type": "R", "latitude": 53.374646, "longitude": -2.476025 }, "geometry": { "type": "Point", "coordinates": [ -2.476025, 53.374646 ] } },
{ "type": "Feature", "properties": { "ID": 27383428, "Name": "Booths Ln - Cherry Ln to Massey Brook Ln", "StartLat": 53.374862, "StartLng": -2.490113, "Type": "R", "latitude": 53.374862, "longitude": -2.490113 }, "geometry": { "type": "Point", "coordinates": [ -2.490113, 53.374862 ] } },
{ "type": "Feature", "properties": { "ID": 14671361, "Name": "Lakeside Rd- alley to a56", "StartLat": 53.375902, "StartLng": -2.484169, "Type": "R", "latitude": 53.375902, "longitude": -2.484169 }, "geometry": { "type": "Point", "coordinates": [ -2.484169, 53.375902 ] } },
{ "type": "Feature", "properties": { "ID": 3829180, "Name": "Lymm 10k Downhill", "StartLat": 53.378342371400002, "StartLng": -2.4667906668000001, "Type": "R", "latitude": 53.378342371400002, "longitude": -2.4667906668000001 }, "geometry": { "type": "Point", "coordinates": [ -2.4667906668, 53.378342371400002 ] } },
{ "type": "Feature", "properties": { "ID": 3829149, "Name": "Lymm Off Road", "StartLat": 53.3815356251, "StartLng": -2.4667515233200001, "Type": "R", "latitude": 53.3815356251, "longitude": -2.4667515233200001 }, "geometry": { "type": "Point", "coordinates": [ -2.46675152332, 53.3815356251 ] } },
{ "type": "Feature", "properties": { "ID": 22599246, "Name": "Star Hill Sprint", "StartLat": 53.382463, "StartLng": -2.493119, "Type": "R", "latitude": 53.382463, "longitude": -2.493119 }, "geometry": { "type": "Point", "coordinates": [ -2.493119, 53.382463 ] } },
{ "type": "Feature", "properties": { "ID": 11087304, "Name": "Captain's Slog.", "StartLat": 53.384299, "StartLng": -2.483497, "Type": "R", "latitude": 53.384299, "longitude": -2.483497 }, "geometry": { "type": "Point", "coordinates": [ -2.483497, 53.384299 ] } },
{ "type": "Feature", "properties": { "ID": 15216024, "Name": "Through Bucklow", "StartLat": 53.384935, "StartLng": -2.460302, "Type": "R", "latitude": 53.384935, "longitude": -2.460302 }, "geometry": { "type": "Point", "coordinates": [ -2.460302, 53.384935 ] } },
{ "type": "Feature", "properties": { "ID": 19023337, "Name": "Lymmhay to Reddish ", "StartLat": 53.385564, "StartLng": -2.477837, "Type": "R", "latitude": 53.385564, "longitude": -2.477837 }, "geometry": { "type": "Point", "coordinates": [ -2.477837, 53.385564 ] } },
{ "type": "Feature", "properties": { "ID": 8377962, "Name": "Bollin Dog Leg - come and have a go if you think you're fast enough", "StartLat": 53.387094, "StartLng": -2.468308, "Type": "R", "latitude": 53.387094, "longitude": -2.468308 }, "geometry": { "type": "Point", "coordinates": [ -2.468308, 53.387094 ] } },
{ "type": "Feature", "properties": { "ID": 8608983, "Name": "Farmer's Elbow", "StartLat": 53.387368, "StartLng": -2.468282, "Type": "R", "latitude": 53.387368, "longitude": -2.468282 }, "geometry": { "type": "Point", "coordinates": [ -2.468282, 53.387368 ] } },
{ "type": "Feature", "properties": { "ID": 8997586, "Name": "Lymm, Reddish Ln - Lymmhay Ln (23,622 inches)", "StartLat": 53.38739, "StartLng": -2.46897, "Type": "R", "latitude": 53.38739, "longitude": -2.46897 }, "geometry": { "type": "Point", "coordinates": [ -2.46897, 53.38739 ] } }
]
}
